[
  {
    "Code village":97601001,
    "Nom Village":"Acoua",
    "Latitude":-12.7239,
    "Longitude":45.0644,
    "Sol en terre battue":278.71,
    "Sol en beton":162.789,
    "Sol en carrelage ou autre":485.5,
    "Total":927,
    "Nombre moyen de personnes par logement":3.9449867206
  },
  {
    "Code village":97601002,
    "Nom Village":"Mtsangadoua",
    "Latitude":-12.709,
    "Longitude":45.052,
    "Sol en terre battue":44.0603,
    "Sol en beton":81.0538,
    "Sol en carrelage ou autre":257.886,
    "Total":383,
    "Nombre moyen de personnes par logement":3.9869463446
  },
  {
    "Code village":97602001,
    "Nom Village":"Bandraboua",
    "Latitude":-12.7019,
    "Longitude":45.12,
    "Sol en terre battue":221.053,
    "Sol en beton":104.966,
    "Sol en carrelage ou autre":337.981,
    "Total":664,
    "Nombre moyen de personnes par logement":4.2665664307
  },
  {
    "Code village":97602002,
    "Nom Village":"Handréma",
    "Latitude":-12.6819,
    "Longitude":45.0995,
    "Sol en terre battue":133.0,
    "Sol en beton":49.0,
    "Sol en carrelage ou autre":216.0,
    "Total":398,
    "Nombre moyen de personnes par logement":4.5954773869
  },
  {
    "Code village":97602003,
    "Nom Village":"Mtsangamboua",
    "Latitude":-12.6904,
    "Longitude":45.1091,
    "Sol en terre battue":54.8795,
    "Sol en beton":81.3385,
    "Sol en carrelage ou autre":161.782,
    "Total":298,
    "Nombre moyen de personnes par logement":4.3758395638
  },
  {
    "Code village":97602004,
    "Nom Village":"Dzoumogné",
    "Latitude":-12.7201,
    "Longitude":45.1176,
    "Sol en terre battue":662.057,
    "Sol en beton":367.937,
    "Sol en carrelage ou autre":384.006,
    "Total":1414,
    "Nombre moyen de personnes par logement":4.2949076379
  },
  {
    "Code village":97602005,
    "Nom Village":"Bouyouni",
    "Latitude":-12.7356,
    "Longitude":45.1389,
    "Sol en terre battue":210.028,
    "Sol en beton":86.9747,
    "Sol en carrelage ou autre":117.998,
    "Total":415,
    "Nombre moyen de personnes par logement":4.6939745542
  },
  {
    "Code village":97603001,
    "Nom Village":"Bandrele",
    "Latitude":-12.9089,
    "Longitude":45.1944,
    "Sol en terre battue":332.957,
    "Sol en beton":130.02,
    "Sol en carrelage ou autre":675.023,
    "Total":1138,
    "Nombre moyen de personnes par logement":3.6731110193
  },
  {
    "Code village":97603002,
    "Nom Village":"Hamouro",
    "Latitude":-12.881,
    "Longitude":45.215,
    "Sol en terre battue":170.999,
    "Sol en beton":18.9977,
    "Sol en carrelage ou autre":57.0033,
    "Total":247,
    "Nombre moyen de personnes par logement":4.2510133603
  },
  {
    "Code village":97603003,
    "Nom Village":"Nyambadao",
    "Latitude":-12.8931,
    "Longitude":45.2016,
    "Sol en terre battue":141.045,
    "Sol en beton":154.95,
    "Sol en carrelage ou autre":134.005,
    "Total":430,
    "Nombre moyen de personnes par logement":3.9348844651
  },
  {
    "Code village":97603004,
    "Nom Village":"Bambo-Est",
    "Latitude":-12.929,
    "Longitude":45.1761,
    "Sol en terre battue":62.0,
    "Sol en beton":37.0,
    "Sol en carrelage ou autre":68.0,
    "Total":167,
    "Nombre moyen de personnes par logement":3.7
  },
  {
    "Code village":97603005,
    "Nom Village":"Mtsamoudou",
    "Latitude":-12.9624,
    "Longitude":45.1731,
    "Sol en terre battue":106.988,
    "Sol en beton":228.028,
    "Sol en carrelage ou autre":141.984,
    "Total":477,
    "Nombre moyen de personnes par logement":4.0314459539
  },
  {
    "Code village":97603006,
    "Nom Village":"Dapani",
    "Latitude":-12.9701,
    "Longitude":45.1608,
    "Sol en terre battue":52.9387,
    "Sol en beton":80.9654,
    "Sol en carrelage ou autre":53.0959,
    "Total":187,
    "Nombre moyen de personnes par logement":4.406418984
  },
  {
    "Code village":97604001,
    "Nom Village":"Bouéni",
    "Latitude":-12.9069,
    "Longitude":45.0787,
    "Sol en terre battue":87.7713,
    "Sol en beton":136.558,
    "Sol en carrelage ou autre":403.67,
    "Total":628,
    "Nombre moyen de personnes par logement":3.4426724682
  },
  {
    "Code village":97604002,
    "Nom Village":"Moinatrindri",
    "Latitude":-12.8996,
    "Longitude":45.0957,
    "Sol en terre battue":24.9436,
    "Sol en beton":36.974,
    "Sol en carrelage ou autre":191.082,
    "Total":253,
    "Nombre moyen de personnes par logement":4.1660071542
  },
  {
    "Code village":97604003,
    "Nom Village":"Hagnoundrou",
    "Latitude":-12.9041,
    "Longitude":45.1007,
    "Sol en terre battue":30.0334,
    "Sol en beton":61.0628,
    "Sol en carrelage ou autre":132.904,
    "Total":224,
    "Nombre moyen de personnes par logement":3.781246875
  },
  {
    "Code village":97604004,
    "Nom Village":"Bambo-Ouest",
    "Latitude":-12.9242,
    "Longitude":45.0904,
    "Sol en terre battue":3.00428,
    "Sol en beton":31.0539,
    "Sol en carrelage ou autre":57.9418,
    "Total":92,
    "Nombre moyen de personnes par logement":3.9565216304
  },
  {
    "Code village":97604005,
    "Nom Village":"Mzouazia",
    "Latitude":-12.9257,
    "Longitude":45.1036,
    "Sol en terre battue":30.9969,
    "Sol en beton":61.9919,
    "Sol en carrelage ou autre":214.011,
    "Total":307,
    "Nombre moyen de personnes par logement":3.7752423127
  },
  {
    "Code village":97604006,
    "Nom Village":"Mbouanatsa",
    "Latitude":-12.9435,
    "Longitude":45.1021,
    "Sol en terre battue":1.99411,
    "Sol en beton":0.99507,
    "Sol en carrelage ou autre":63.0108,
    "Total":66,
    "Nombre moyen de personnes par logement":3.2575780303
  },
  {
    "Code village":97604007,
    "Nom Village":"Majiméouni",
    "Latitude":-12.9251,
    "Longitude":45.1057,
    "Sol en terre battue":30.0,
    "Sol en beton":39.0,
    "Sol en carrelage ou autre":29.0,
    "Total":98,
    "Nombre moyen de personnes par logement":3.9591836735
  },
  {
    "Code village":97605001,
    "Nom Village":"Chiconi",
    "Latitude":-12.83,
    "Longitude":45.1128,
    "Sol en terre battue":491.122,
    "Sol en beton":227.08,
    "Sol en carrelage ou autre":1015.8,
    "Total":1734,
    "Nombre moyen de personnes par logement":3.8927319896
  },
  {
    "Code village":97605002,
    "Nom Village":"Sohoa",
    "Latitude":-12.8226,
    "Longitude":45.1066,
    "Sol en terre battue":181.012,
    "Sol en beton":41.0152,
    "Sol en carrelage ou autre":219.973,
    "Total":442,
    "Nombre moyen de personnes par logement":3.4954741403
  },
  {
    "Code village":97606001,
    "Nom Village":"Chirongui",
    "Latitude":-12.9361,
    "Longitude":45.1507,
    "Sol en terre battue":86.9543,
    "Sol en beton":143.096,
    "Sol en carrelage ou autre":185.95,
    "Total":416,
    "Nombre moyen de personnes par logement":3.9495192788
  },
  {
    "Code village":97606002,
    "Nom Village":"Tsimkoura",
    "Latitude":-12.9392,
    "Longitude":45.1391,
    "Sol en terre battue":44.0134,
    "Sol en beton":66.9981,
    "Sol en carrelage ou autre":276.989,
    "Total":388,
    "Nombre moyen de personnes par logement":3.6237100773
  },
  {
    "Code village":97606003,
    "Nom Village":"Mramadoudou",
    "Latitude":-12.9283,
    "Longitude":45.1544,
    "Sol en terre battue":100.0,
    "Sol en beton":90.0,
    "Sol en carrelage ou autre":88.0,
    "Total":278,
    "Nombre moyen de personnes par logement":5.118705036
  },
  {
    "Code village":97606004,
    "Nom Village":"Malamani",
    "Latitude":-12.921,
    "Longitude":45.159,
    "Sol en terre battue":109.041,
    "Sol en beton":7.00301,
    "Sol en carrelage ou autre":80.9561,
    "Total":197,
    "Nombre moyen de personnes par logement":3.9543180203
  },
  {
    "Code village":97606005,
    "Nom Village":"Poroani",
    "Latitude":-12.8925,
    "Longitude":45.1417,
    "Sol en terre battue":50.1122,
    "Sol en beton":236.322,
    "Sol en carrelage ou autre":302.566,
    "Total":589,
    "Nombre moyen de personnes par logement":3.8998314941
  },
  {
    "Code village":97606006,
    "Nom Village":"Mréréni",
    "Latitude":-12.9049,
    "Longitude":45.1534,
    "Sol en terre battue":155.987,
    "Sol en beton":47.9954,
    "Sol en carrelage ou autre":121.018,
    "Total":325,
    "Nombre moyen de personnes par logement":4.2215389846
  },
  {
    "Code village":97607001,
    "Nom Village":"Dembeni",
    "Latitude":-12.8453,
    "Longitude":45.1872,
    "Sol en terre battue":454.822,
    "Sol en beton":214.299,
    "Sol en carrelage ou autre":154.879,
    "Total":824,
    "Nombre moyen de personnes par logement":4.610436432
  },
  {
    "Code village":97607002,
    "Nom Village":"Ongojou",
    "Latitude":-12.8389,
    "Longitude":45.1592,
    "Sol en terre battue":327.084,
    "Sol en beton":41.9954,
    "Sol en carrelage ou autre":96.9208,
    "Total":466,
    "Nombre moyen de personnes par logement":4.5300417811
  },
  {
    "Code village":97607003,
    "Nom Village":"Iloni",
    "Latitude":-12.8459,
    "Longitude":45.1915,
    "Sol en terre battue":148.018,
    "Sol en beton":335.927,
    "Sol en carrelage ou autre":279.055,
    "Total":763,
    "Nombre moyen de personnes par logement":3.8925302752
  },
  {
    "Code village":97607004,
    "Nom Village":"Hajangoua",
    "Latitude":-12.8665,
    "Longitude":45.1972,
    "Sol en terre battue":235.016,
    "Sol en beton":101.034,
    "Sol en carrelage ou autre":163.95,
    "Total":500,
    "Nombre moyen de personnes par logement":4.23599922
  },
  {
    "Code village":97607005,
    "Nom Village":"Tsararano",
    "Latitude":-12.8366,
    "Longitude":45.1734,
    "Sol en terre battue":508.935,
    "Sol en beton":232.014,
    "Sol en carrelage ou autre":376.051,
    "Total":1117,
    "Nombre moyen de personnes par logement":4.3303496061
  },
  {
    "Code village":97608001,
    "Nom Village":"Dzaoudzi",
    "Latitude":-12.7883,
    "Longitude":45.2725,
    "Sol en terre battue":1.0,
    "Sol en beton":0.0,
    "Sol en carrelage ou autre":28.0,
    "Total":29,
    "Nombre moyen de personnes par logement":2.5862068966
  },
  {
    "Code village":97608002,
    "Nom Village":"Labattoir",
    "Latitude":-12.7873,
    "Longitude":45.277,
    "Sol en terre battue":1482.45,
    "Sol en beton":852.727,
    "Sol en carrelage ou autre":1865.82,
    "Total":4201,
    "Nombre moyen de personnes par logement":4.2211388027
  },
  {
    "Code village":97609001,
    "Nom Village":"Kani-Kéli",
    "Latitude":-12.9567,
    "Longitude":45.105,
    "Sol en terre battue":117.09,
    "Sol en beton":116.908,
    "Sol en carrelage ou autre":398.002,
    "Total":632,
    "Nombre moyen de personnes par logement":3.6598108228
  },
  {
    "Code village":97609002,
    "Nom Village":"Kani-Bé",
    "Latitude":-12.9644,
    "Longitude":45.1122,
    "Sol en terre battue":37.0424,
    "Sol en beton":55.2876,
    "Sol en carrelage ou autre":126.67,
    "Total":219,
    "Nombre moyen de personnes par logement":4.3287655708
  },
  {
    "Code village":97609003,
    "Nom Village":"Choungui",
    "Latitude":-12.9618,
    "Longitude":45.1267,
    "Sol en terre battue":39.0,
    "Sol en beton":69.0,
    "Sol en carrelage ou autre":112.0,
    "Total":220,
    "Nombre moyen de personnes par logement":3.4227272727
  },
  {
    "Code village":97609004,
    "Nom Village":"Mronabéja",
    "Latitude":-12.9795,
    "Longitude":45.1238,
    "Sol en terre battue":10.0,
    "Sol en beton":23.0,
    "Sol en carrelage ou autre":128.0,
    "Total":161,
    "Nombre moyen de personnes par logement":3.4161490683
  },
  {
    "Code village":97609005,
    "Nom Village":"Passi-Kéli",
    "Latitude":-12.9864,
    "Longitude":45.1278,
    "Sol en terre battue":2.98936,
    "Sol en beton":37.9601,
    "Sol en carrelage ou autre":70.0505,
    "Total":111,
    "Nombre moyen de personnes par logement":3.7747730631
  },
  {
    "Code village":97609006,
    "Nom Village":"Mbouini",
    "Latitude":-12.9893,
    "Longitude":45.1376,
    "Sol en terre battue":46.0,
    "Sol en beton":25.0,
    "Sol en carrelage ou autre":68.0,
    "Total":139,
    "Nombre moyen de personnes par logement":3.7697841727
  },
  {
    "Code village":97610001,
    "Nom Village":"Koungou",
    "Latitude":-12.7341,
    "Longitude":45.2022,
    "Sol en terre battue":1022.87,
    "Sol en beton":431.957,
    "Sol en carrelage ou autre":728.175,
    "Total":2183,
    "Nombre moyen de personnes par logement":4.2830980302
  },
  {
    "Code village":97610002,
    "Nom Village":"Longoni",
    "Latitude":-12.7348,
    "Longitude":45.1635,
    "Sol en terre battue":506.995,
    "Sol en beton":148.06,
    "Sol en carrelage ou autre":154.945,
    "Total":810,
    "Nombre moyen de personnes par logement":4.917279679
  },
  {
    "Code village":97610003,
    "Nom Village":"Kangani",
    "Latitude":-12.7323,
    "Longitude":45.1873,
    "Sol en terre battue":91.0367,
    "Sol en beton":69.0083,
    "Sol en carrelage ou autre":150.955,
    "Total":311,
    "Nombre moyen de personnes par logement":3.2861744051
  },
  {
    "Code village":97610004,
    "Nom Village":"Trévani",
    "Latitude":-12.7355,
    "Longitude":45.1982,
    "Sol en terre battue":577.668,
    "Sol en beton":131.055,
    "Sol en carrelage ou autre":246.277,
    "Total":955,
    "Nombre moyen de personnes par logement":4.2115212984
  },
  {
    "Code village":97610005,
    "Nom Village":"Majicavo-Koropa",
    "Latitude":-12.747,
    "Longitude":45.22,
    "Sol en terre battue":1392.23,
    "Sol en beton":428.98,
    "Sol en carrelage ou autre":770.786,
    "Total":2592,
    "Nombre moyen de personnes par logement":4.5131183912
  },
  {
    "Code village":97610006,
    "Nom Village":"Majicavo-Lamir",
    "Latitude":-12.7558,
    "Longitude":45.2302,
    "Sol en terre battue":141.117,
    "Sol en beton":66.0214,
    "Sol en carrelage ou autre":440.861,
    "Total":648,
    "Nombre moyen de personnes par logement":2.7484567901
  },
  {
    "Code village":97611001,
    "Nom Village":"Mamoudzou",
    "Latitude":-12.7814,
    "Longitude":45.2317,
    "Sol en terre battue":361.658,
    "Sol en beton":325.539,
    "Sol en carrelage ou autre":1144.8,
    "Total":1832,
    "Nombre moyen de personnes par logement":3.3466166594
  },
  {
    "Code village":97611002,
    "Nom Village":"Mtsapéré",
    "Latitude":-12.7864,
    "Longitude":45.2192,
    "Sol en terre battue":1878.05,
    "Sol en beton":623.994,
    "Sol en carrelage ou autre":1510.96,
    "Total":4013,
    "Nombre moyen de personnes par logement":3.9536490581
  },
  {
    "Code village":97611003,
    "Nom Village":"Kawéni",
    "Latitude":-12.7684,
    "Longitude":45.2238,
    "Sol en terre battue":1642.84,
    "Sol en beton":931.851,
    "Sol en carrelage ou autre":1666.31,
    "Total":4241,
    "Nombre moyen de personnes par logement":4.02263556
  },
  {
    "Code village":97611004,
    "Nom Village":"Passamainty",
    "Latitude":-12.8005,
    "Longitude":45.2081,
    "Sol en terre battue":749.806,
    "Sol en beton":386.942,
    "Sol en carrelage ou autre":1038.25,
    "Total":2175,
    "Nombre moyen de personnes par logement":3.8671261057
  },
  {
    "Code village":97611005,
    "Nom Village":"Tsoundzou I",
    "Latitude":-12.8059,
    "Longitude":45.204,
    "Sol en terre battue":672.739,
    "Sol en beton":122.036,
    "Sol en carrelage ou autre":390.225,
    "Total":1185,
    "Nombre moyen de personnes par logement":4.7004259325
  },
  {
    "Code village":97611006,
    "Nom Village":"Vahibé",
    "Latitude":-12.7899,
    "Longitude":45.1773,
    "Sol en terre battue":813.958,
    "Sol en beton":145.021,
    "Sol en carrelage ou autre":320.022,
    "Total":1279,
    "Nombre moyen de personnes par logement":4.7435511102
  },
  {
    "Code village":97611007,
    "Nom Village":"Tsoundzou II",
    "Latitude":-12.8165,
    "Longitude":45.197,
    "Sol en terre battue":255.056,
    "Sol en beton":69.0055,
    "Sol en carrelage ou autre":360.939,
    "Total":685,
    "Nombre moyen de personnes par logement":3.7182502482
  },
  {
    "Code village":97611008,
    "Nom Village":"Cavani",
    "Latitude":-12.783,
    "Longitude":45.2238,
    "Sol en terre battue":916.776,
    "Sol en beton":342.976,
    "Sol en carrelage ou autre":1201.25,
    "Total":2461,
    "Nombre moyen de personnes par logement":3.9536777082
  },
  {
    "Code village":97612001,
    "Nom Village":"Mtsamboro",
    "Latitude":-12.6986,
    "Longitude":45.0697,
    "Sol en terre battue":210.053,
    "Sol en beton":117.921,
    "Sol en carrelage ou autre":478.026,
    "Total":806,
    "Nombre moyen de personnes par logement":4.0545879901
  },
  {
    "Code village":97612002,
    "Nom Village":"Hamjago",
    "Latitude":-12.6891,
    "Longitude":45.0749,
    "Sol en terre battue":75.9501,
    "Sol en beton":23.9983,
    "Sol en carrelage ou autre":372.052,
    "Total":472,
    "Nombre moyen de personnes par logement":4.0042382203
  },
  {
    "Code village":97612003,
    "Nom Village":"Mtsahara",
    "Latitude":-12.6804,
    "Longitude":45.083,
    "Sol en terre battue":129.003,
    "Sol en beton":83.0521,
    "Sol en carrelage ou autre":348.945,
    "Total":561,
    "Nombre moyen de personnes par logement":4.5240636185
  },
  {
    "Code village":97613001,
    "Nom Village":"M'Tsangamouji",
    "Latitude":-12.7617,
    "Longitude":45.0867,
    "Sol en terre battue":325.954,
    "Sol en beton":284.893,
    "Sol en carrelage ou autre":579.153,
    "Total":1190,
    "Nombre moyen de personnes par logement":3.7504211429
  },
  {
    "Code village":97613002,
    "Nom Village":"Chembenyoumba",
    "Latitude":-12.7611,
    "Longitude":45.078,
    "Sol en terre battue":57.0936,
    "Sol en beton":57.051,
    "Sol en carrelage ou autre":270.855,
    "Total":385,
    "Nombre moyen de personnes par logement":3.8285705455
  },
  {
    "Code village":97613003,
    "Nom Village":"Mliha",
    "Latitude":-12.7499,
    "Longitude":45.0558,
    "Sol en terre battue":22.0191,
    "Sol en beton":38.0225,
    "Sol en carrelage ou autre":47.9584,
    "Total":108,
    "Nombre moyen de personnes par logement":4.583335463
  },
  {
    "Code village":97614001,
    "Nom Village":"Ouangani",
    "Latitude":-12.8491,
    "Longitude":45.1389,
    "Sol en terre battue":348.936,
    "Sol en beton":176.058,
    "Sol en carrelage ou autre":404.007,
    "Total":929,
    "Nombre moyen de personnes par logement":4.0215300323
  },
  {
    "Code village":97614002,
    "Nom Village":"Barakani",
    "Latitude":-12.8381,
    "Longitude":45.1321,
    "Sol en terre battue":305.0,
    "Sol en beton":107.0,
    "Sol en carrelage ou autre":349.0,
    "Total":761,
    "Nombre moyen de personnes par logement":4.1432325887
  },
  {
    "Code village":97614003,
    "Nom Village":"Coconi",
    "Latitude":-12.8333,
    "Longitude":45.1371,
    "Sol en terre battue":16.0528,
    "Sol en beton":6.03452,
    "Sol en carrelage ou autre":39.9127,
    "Total":62,
    "Nombre moyen de personnes par logement":3.8870958065
  },
  {
    "Code village":97614004,
    "Nom Village":"Kahani",
    "Latitude":-12.8238,
    "Longitude":45.1307,
    "Sol en terre battue":490.0,
    "Sol en beton":56.0,
    "Sol en carrelage ou autre":94.0,
    "Total":640,
    "Nombre moyen de personnes par logement":4.7828125
  },
  {
    "Code village":97615001,
    "Nom Village":"Pamandzi",
    "Latitude":-12.7989,
    "Longitude":45.2748,
    "Sol en terre battue":773.358,
    "Sol en beton":522.975,
    "Sol en carrelage ou autre":1604.67,
    "Total":2901,
    "Nombre moyen de personnes par logement":3.9127891003
  },
  {
    "Code village":97616001,
    "Nom Village":"Sada",
    "Latitude":-12.8489,
    "Longitude":45.0997,
    "Sol en terre battue":610.837,
    "Sol en beton":297.965,
    "Sol en carrelage ou autre":1634.2,
    "Total":2543,
    "Nombre moyen de personnes par logement":3.7526539481
  },
  {
    "Code village":97616002,
    "Nom Village":"Mangajou",
    "Latitude":-12.8453,
    "Longitude":45.1163,
    "Sol en terre battue":160.03,
    "Sol en beton":33.9937,
    "Sol en carrelage ou autre":192.976,
    "Total":387,
    "Nombre moyen de personnes par logement":4.1033583204
  },
  {
    "Code village":97617001,
    "Nom Village":"Tsingoni",
    "Latitude":-12.7875,
    "Longitude":45.1028,
    "Sol en terre battue":253.101,
    "Sol en beton":75.8039,
    "Sol en carrelage ou autre":508.095,
    "Total":837,
    "Nombre moyen de personnes par logement":3.6702487455
  },
  {
    "Code village":97617002,
    "Nom Village":"Mroalé",
    "Latitude":-12.7899,
    "Longitude":45.1273,
    "Sol en terre battue":71.0038,
    "Sol en beton":48.0128,
    "Sol en carrelage ou autre":105.983,
    "Total":225,
    "Nombre moyen de personnes par logement":3.7022224444
  },
  {
    "Code village":97617003,
    "Nom Village":"Combani",
    "Latitude":-12.7894,
    "Longitude":45.1341,
    "Sol en terre battue":780.474,
    "Sol en beton":285.089,
    "Sol en carrelage ou autre":516.437,
    "Total":1582,
    "Nombre moyen de personnes par logement":3.9393189128
  },
  {
    "Code village":97617004,
    "Nom Village":"Miréréni",
    "Latitude":-12.7882,
    "Longitude":45.1412,
    "Sol en terre battue":504.998,
    "Sol en beton":62.9667,
    "Sol en carrelage ou autre":238.035,
    "Total":806,
    "Nombre moyen de personnes par logement":4.1736994665
  }
]